
[
	{
		"name":"Count Dracula’s Castle",
	 	"latitude":"45.515835", 
	 	"longitude":"25.367540",
	 	"photo":"places/Count_Dracula’s_Castle.jpg"
	},
	{
		"name":"Grand Canyon National Park",
		"latitude":"36.1069663",
		"longitude":"-112.1129948",
		"photo":"places/Grand_Canyon_National_Park.jpg"
	},
	{
		"name":"Area 51",
		"latitude":"37.233333",
		"longitude":"-115.808333",
		"photo":"places/Area_51.png"
	},
	{
		"name":"Mount Fuji",
		"latitude":"35.3606255",
		"longitude":"138.7273634",
		"photo":"places/Mount_Fuji.jpg" 
	},
	{
		"name":"Uluru",
		"latitude":"-25.3444277",
		"longitude":"131.0368822",
		"photo":"places/Uluru.jpg"
	},
	{
		"name":"Baikal",
		"latitude":"53.2485767",
		"longitude":"107.7642059",
		"photo":"places/Baikal.png"
	},
	{
		"name":"Sharm El Sheikh",
		"latitude":"27.9744318",
		"longitude":"34.3327827",
		"photo":"places/Sharm_el_Sheikh.png"
	},
	{
		"name":"Santorini",
		"latitude":"36.4315281",
		"longitude":"25.4244386",
		"photo":"places/Santorini.png"
	},
	{
		"name":"Silicon Valley",
		"latitude":"37.4178009",
		"longitude":"-122.0255814",
		"photo":"places/Silicon_valley.png"
	},
	{
		"name":"Amazon",
		"latitude":"-2.2071722",
		"longitude":"-56.1159355",
		"photo":"places/Santorini.png"
	},
	{
		"name":"Norway",
		"latitude":"62.6849853",
		"longitude":"8.5558236",
		"photo":"places/Norway.png"
	},
	{
		"name":"Akihabara",
		"latitude":"35.700257",
		"longitude":"139.7715225",
		"photo":"places/Akihabara.jpg"
	},
	{
		"name":"Mughal garden",
		"latitude":"28.6150546",
		"longitude":"77.1967104",
		"photo":"places/Mughal_garden.jpg"
	},
	{
		"name":"Donbas arena",
		"latitude":"48.0206775",
		"longitude":"37.8077645",
		"photo":"places/Donbas_arena.jpg"
	},
	{
		"name":"Colosseum",
		"latitude":"41.890072",
		"longitude":"12.4925342",
		"photo":"places/Colosseum.jpg"
	},
	{
		"name":"Kohala coast",
		"latitude":"19.8297761",
		"longitude":"-155.9903333",
		"photo":"places/Kohala_coast.png"
	},
	{
		"name":"Scotts hut",
		"latitude":"-77.6361805",
		"longitude":"166.4173336",
		"photo":"places/Scotts_hut.png"
	},
	{
		"name":"Mayan ruins",
		"latitude":"20.6825265",
		"longitude":"-88.5686323",
		"photo":"places/Mayan_ruins.jpg"
	},
	{
		"name":"Taj Mahal",
		"latitude":"27.1751448",
		"longitude":"78.0399482",
		"photo":"places/Taj_Mahal.png"
	},
	{
		"name":"Basilica of the Sacred Heart",
		"latitude":"50.8670916",
		"longitude":"4.3170831",
		"photo":"places/Basilica_of_the_Sacred_Heart.jpg"
	},
	{
		"name":"New Zeland",
		"latitude":"44.002333",
		"longitude":"170.480167",
		"photo":"places/New_Zeland.png"
	}
]
